[
  {
    "Department": "-",
    "E-mail": "kiishore91@gmail.com",
    "event_id": 1000,
    "title": "Concert",
    "Date": "13/11/2019",
    "Start_Time": "18:30",
    "End_Time": "22:20",
    "Venue": "Main Ground",
    "Description": "Anokha Concert featuring Sid Shriram for the first time ever, limited seats only. Register at : forms.google.com/lolol for details contact 9596692911",
    "Contact info": "9566066699",
    "Contact name": "Kishore",
    "Category":"Cultural",
    "Lat": 10.902631,
    "Long": 76.902417
  },
  {
    "Department": "-",
    "E-mail": "kiishore91@gmail.com",
    "event_id": 1001,
    "title": "Food Fest",
    "Date": "13/11/2019",
    "Start_Time": "11:00",
    "End_Time": "22:30",
    "Venue": "Car Parking",
    "Description": "Food Fest (Anokaha) next to AB1 Car Park",
    "Contact info": "9898989",
    "Contact name": "kkk",
    "Category":"Other",
    "Lat": 10.900801,
    "Long": 76.901852
  },
  {
    "Department": "CSE",
    "E-mail": "kiishore91@gmail.com",
    "event_id": 1002,
    "title": "App Development Workshop",
    "Date": "12/11/2019",
    "Start_Time": "10:30",
    "End_Time": "13:20",
    "Venue": "AB3,C203",
    "Description": "IOS App Development Workshop Conducted by IBM",
    "Contact info": "9898989",
    "Contact name": "kkk",
    "Category":"Technical",
    "Lat": 10.906172,
    "Long": 76.897862
  },
  {
    "Department": "-",
    "E-mail": "kiishore91@gmail.com",
    "event_id": 1003,
    "title": "Football tournament ",
    "Date": "12/11/2019",
    "Start_Time": "16:45",
    "End_Time": "19:00",
    "Venue": "Main Ground",
    "Description": "Amrita 7's football tournament",
    "Contact info": "9898989",
    "Contact name": "kkk",
    "Category":"Sport",
    "Lat": 10.903987,
    "Long": 76.903995
  },
  {
    "Department": "-",
    "E-mail": "kiishore91@gmail.com",
    "event_id": 1004,
    "title": "Debate Finals",
    "Date": "12/11/2019",
    "Start_Time": "14:50",
    "End_Time": "19:00",
    "Venue": "Amriteshwari Hall",
    "Description": "Shrishti club Debate competetion Finals",
    "Contact info": "9898989",
    "Contact name": "kkk",
    "Category":"Cultural",
    "Lat": 10.900539,
    "Long": 76.903695
  },
  {
    "Department": "-",
    "E-mail": "kiishore91@gmail.com",
    "event_id": 1005,
    "title": "lol tournament ",
    "Date": "12/11/2019",
    "Start_Time": "16:45",
    "End_Time": "19:00",
    "Venue": "Main Ground",
    "Description": "Amrita 7's football tournament",
    "Contact info": "9898989",
    "Contact name": "kkk",
    "Category":"Sport",
    "Lat": 10.903987,
    "Long": 76.903995
  }
]
